[
  {
    "slug": "madrid",
    "nombre": "Madrid",
    "provincia": "Madrid",
    "comunidad_autonoma": "Comunidad de Madrid",
    "coordenadas": { "lat": 40.4168, "lng": -3.7038 },
    "imagen": ""
  },
  {
    "slug": "barcelona",
    "nombre": "Barcelona",
    "provincia": "Barcelona",
    "comunidad_autonoma": "Cataluña",
    "coordenadas": { "lat": 41.3874, "lng": 2.1686 },
    "imagen": ""
  },
  {
    "slug": "valencia",
    "nombre": "Valencia",
    "provincia": "Valencia",
    "comunidad_autonoma": "Comunidad Valenciana",
    "coordenadas": { "lat": 39.4699, "lng": -0.3763 },
    "imagen": ""
  },
  {
    "slug": "sevilla",
    "nombre": "Sevilla",
    "provincia": "Sevilla",
    "comunidad_autonoma": "Andalucía",
    "coordenadas": { "lat": 37.3891, "lng": -5.9845 },
    "imagen": ""
  },
  {
    "slug": "malaga",
    "nombre": "Málaga",
    "provincia": "Málaga",
    "comunidad_autonoma": "Andalucía",
    "coordenadas": { "lat": 36.7213, "lng": -4.4214 },
    "imagen": ""
  },
  {
    "slug": "bilbao",
    "nombre": "Bilbao",
    "provincia": "Vizcaya",
    "comunidad_autonoma": "País Vasco",
    "coordenadas": { "lat": 43.2630, "lng": -2.9350 },
    "imagen": ""
  },
  {
    "slug": "zaragoza",
    "nombre": "Zaragoza",
    "provincia": "Zaragoza",
    "comunidad_autonoma": "Aragón",
    "coordenadas": { "lat": 41.6488, "lng": -0.8891 },
    "imagen": ""
  },
  {
    "slug": "alicante",
    "nombre": "Alicante",
    "provincia": "Alicante",
    "comunidad_autonoma": "Comunidad Valenciana",
    "coordenadas": { "lat": 38.3452, "lng": -0.4810 },
    "imagen": ""
  },
  {
    "slug": "murcia",
    "nombre": "Murcia",
    "provincia": "Murcia",
    "comunidad_autonoma": "Región de Murcia",
    "coordenadas": { "lat": 37.9922, "lng": -1.1307 },
    "imagen": ""
  },
  {
    "slug": "palma",
    "nombre": "Palma de Mallorca",
    "provincia": "Islas Baleares",
    "comunidad_autonoma": "Islas Baleares",
    "coordenadas": { "lat": 39.5696, "lng": 2.6502 },
    "imagen": ""
  },
  {
    "slug": "granada",
    "nombre": "Granada",
    "provincia": "Granada",
    "comunidad_autonoma": "Andalucía",
    "coordenadas": { "lat": 37.1773, "lng": -3.5986 },
    "imagen": ""
  },
  {
    "slug": "valladolid",
    "nombre": "Valladolid",
    "provincia": "Valladolid",
    "comunidad_autonoma": "Castilla y León",
    "coordenadas": { "lat": 41.6523, "lng": -4.7245 },
    "imagen": ""
  }
]
